,City,Country,Cloudiness,Date,Humidity,Lat,Lon,Max Temp,Wind Speed
0,Qaanaaq,GL,0,1578922045,60,77.48,-69.36,-13.31,5.7
1,Airai,TL,100,1578922045,86,-8.93,125.41,69.35,1.83
2,Rikitea,PF,1,1578922046,83,-23.12,-134.97,76.41,11.34
3,Puerto Ayora,EC,1,1578922046,81,-0.74,-90.35,75.99,5.01
4,Mandurah,AU,0,1578922046,77,-32.55,115.7,74.41,1.01
5,Tsabong,BW,23,1578922046,18,-26.02,22.4,95.63,0.85
6,Bage,BR,31,1578922046,74,-31.33,-54.11,69.01,11.99
7,Broome,US,100,1578922046,23,42.25,-75.83,29.71,6.51
8,Busselton,AU,0,1578922046,33,-33.65,115.33,68.97,18.66
9,Alofi,NU,100,1578922047,82,-19.06,-169.92,80.28,16.22
10,Chokurdakh,RU,82,1578922047,97,70.63,147.92,-25.53,0.49
11,Mar del Plata,AR,0,1578921893,64,-38.0,-57.56,64.22,12.55
12,Thompson,CA,100,1578922047,97,55.74,-97.86,6.3,4.05
13,Vaini,TO,70,1578922047,81,-21.2,-175.2,80.42,17.34
14,Bluff,NZ,0,1578922047,85,-46.6,168.33,45.0,3.76
15,Yellowknife,CA,40,1578922047,64,62.46,-114.35,-41.01,4.0
16,Albany,US,100,1578921883,67,42.6,-73.97,28.92,1.01
17,Dzhebariki-Khaya,RU,47,1578922048,92,62.22,135.8,-31.4,1.77
18,Synya,RU,100,1578922048,96,65.37,58.04,22.78,4.65
19,George Town,MY,90,1578922048,74,5.41,100.34,85.24,3.0
20,Hobart,AU,45,1578922048,81,-42.88,147.33,57.81,8.05
21,Zhigansk,RU,100,1578922048,96,66.77,123.37,-11.43,16.64
22,Jinchang,CN,53,1578922048,58,38.5,102.17,18.7,3.91
23,Kruisfontein,ZA,71,1578922048,56,-34.0,24.73,83.91,14.23
24,Vila Velha,BR,63,1578922048,62,-20.33,-40.29,86.5,3.71
25,Clyde River,CA,99,1578922048,92,70.47,-68.59,-15.07,8.68
26,Toguchin,RU,100,1578922048,91,55.24,84.39,11.32,8.7
27,Kyra,RU,0,1578922048,78,49.58,111.98,-8.77,2.17
28,Tuatapere,NZ,0,1578922048,85,-46.13,167.68,45.0,2.53
29,Hukuntsi,BW,11,1578922048,24,-24.0,21.75,93.42,10.71
30,Hegra,NO,89,1578922049,81,63.46,11.11,35.62,3.51
31,Severo-Kuril'sk,RU,100,1578922049,94,50.68,156.12,24.24,8.88
32,Dikson,RU,100,1578922049,94,73.51,80.55,-0.54,20.22
33,Saint-Philippe,RE,100,1578922049,73,-21.36,55.77,77.86,10.22
34,Bikaner,IN,81,1578922049,58,28.02,73.3,58.62,12.82
35,Mataura,NZ,0,1578922049,85,-46.19,168.86,45.0,1.3
36,Darhan,MN,0,1578922049,87,49.49,105.92,-9.54,1.92
37,Ushuaia,AR,99,1578921899,86,-54.8,-68.3,51.46,5.35
38,Cherskiy,RU,100,1578922049,98,68.75,161.3,-13.67,5.28
39,Nanortalik,GL,28,1578922049,49,60.14,-45.24,16.38,16.04
40,Kalmunai,LK,9,1578922049,68,7.42,81.82,79.36,16.24
41,Tuktoyaktuk,CA,0,1578922049,75,69.45,-133.04,-6.03,15.64
42,Bama,NG,86,1578922050,11,11.52,13.69,95.9,11.34
43,Havre-Saint-Pierre,CA,33,1578922050,75,50.23,-63.6,10.42,9.78
44,Geraldton,AU,0,1578922050,77,-28.77,114.6,72.99,26.75
45,Raduzhny,RU,100,1578922050,92,62.1,77.47,8.08,13.13
46,Bethel,US,100,1578921964,84,41.37,-73.41,34.77,1.99
47,Butaritari,KI,47,1578922050,77,3.07,172.79,84.16,12.1
48,Harper,LR,74,1578922050,49,4.38,-7.72,94.93,1.79
49,Alice Springs,AU,89,1578922050,17,-23.7,133.88,87.6,12.41
50,Saint George,US,50,1578921797,80,37.1,-113.58,29.62,1.52
51,Mahebourg,MU,40,1578922050,74,-20.41,57.7,83.16,11.41
52,Fuzhou,CN,14,1578921902,94,26.06,119.31,47.16,5.84
53,Kodiak,US,5,1578922050,79,57.79,-152.41,36.0,11.01
54,Kaitangata,NZ,0,1578922051,83,-46.28,169.85,46.99,1.81
55,New Norfolk,AU,35,1578922051,77,-42.78,147.06,57.85,1.12
56,Cayenne,GF,90,1578922051,89,4.93,-52.33,76.73,7.52
57,Saskylakh,RU,89,1578922051,92,71.92,114.08,-16.91,4.32
58,Bathsheba,BB,1,1578922051,73,13.22,-59.52,77.7,23.8
59,Pangnirtung,CA,100,1578922051,98,66.15,-65.71,-31.0,3.11
60,Avarua,CK,62,1578921832,78,-21.21,-159.78,80.04,15.99
61,Hay River,CA,100,1578922051,100,60.82,-115.8,-22.43,8.84
62,Carnarvon,AU,11,1578922051,78,-24.87,113.63,77.4,18.95
63,Jamestown,US,100,1578922051,94,42.1,-79.24,35.11,4.0
64,Puerto Cabezas,NI,17,1578922051,93,14.04,-83.39,74.68,6.35
65,Baturaja,ID,97,1578922002,95,-4.13,104.17,74.97,4.88
66,Torbay,CA,100,1578922051,79,47.67,-52.73,19.76,1.01
67,Punta Arenas,CL,100,1578921766,87,-53.15,-70.92,55.0,8.01
68,Nivala,FI,1,1578922052,89,63.92,25.0,28.0,1.99
69,Athens,GR,43,1578922052,62,37.98,23.72,53.76,5.99
70,Oyama,JP,15,1578922052,54,36.3,139.8,47.28,6.58
71,Hofn,IS,86,1578922052,71,64.25,-15.21,35.83,33.6
72,Pasni,PK,0,1578922052,23,25.26,63.47,64.58,14.34
73,Oranjestad,AW,0,1578921949,77,12.52,-70.03,80.06,26.26
74,Mzimba,MW,85,1578922052,75,-11.9,33.6,73.29,5.44
75,Kavieng,PG,100,1578922052,76,-2.57,150.8,84.22,14.72
76,Kahului,US,100,1578922052,86,20.89,-156.47,70.0,18.01
77,Souillac,MU,40,1578922052,74,-20.52,57.52,83.17,11.41
78,Cape Town,ZA,33,1578921971,69,-33.93,18.42,78.01,18.99
79,Sangar,RU,100,1578922052,95,63.92,127.47,-18.85,7.85
80,Gizo,SB,96,1578922052,88,-8.1,156.84,79.05,13.24
81,Dunmore East,IE,100,1578922053,94,52.15,-6.99,44.83,11.01
82,Fairbanks,US,72,1578922053,76,64.84,-147.72,-11.24,1.61
83,Basco,PH,50,1578922053,81,20.45,121.97,74.19,26.08
84,Hermanus,ZA,65,1578922053,90,-34.42,19.23,69.71,16.6
85,Pauini,BR,100,1578922053,96,-7.71,-66.98,72.82,0.49
86,Lagoa,PT,81,1578922053,82,39.05,-27.98,62.82,27.94
87,Meulaboh,ID,49,1578922053,72,4.14,96.13,84.0,6.93
88,Nova Mayachka,UA,24,1578922053,97,46.6,33.23,43.0,12.15
89,Lucea,JM,0,1578922053,84,18.45,-78.17,79.0,1.01
90,Bredasdorp,ZA,37,1578921840,46,-34.53,20.04,85.68,13.67
91,Nikolskoye,RU,0,1578922053,87,59.7,30.79,35.56,7.02
92,Rio Gallegos,AR,71,1578922053,67,-51.62,-69.22,59.18,16.55
93,Griffith,US,90,1578921970,90,41.53,-87.42,31.32,10.29
94,Port Elizabeth,ZA,20,1578921892,74,-33.92,25.57,80.6,17.22
95,East London,ZA,40,1578922054,83,-33.02,27.91,80.6,18.34
96,Hrubieszow,PL,100,1578922054,76,50.8,23.89,39.4,10.4
97,Half Moon Bay,US,18,1578922054,91,37.46,-122.43,42.91,1.99
98,Longyearbyen,SJ,0,1578922054,75,78.22,15.64,-16.29,4.21
99,Salta,AR,100,1578922054,76,-24.79,-65.41,71.76,1.23
100,Hilo,US,99,1578921843,90,19.73,-155.09,66.33,17.0
101,Kapaa,US,100,1578922054,93,22.08,-159.32,67.75,9.51
102,Jacmel,HT,0,1578922054,66,18.23,-72.53,79.88,7.07
103,Rio Grande,BR,33,1578921932,57,-32.03,-52.1,72.28,7.72
104,Hobyo,SO,100,1578922055,62,5.35,48.53,82.67,23.38
105,Porto-Novo,BJ,48,1578922055,61,6.5,2.6,88.79,10.0
106,Dongsheng,CN,0,1578922055,67,39.82,109.98,2.66,3.65
107,Lora del Rio,ES,82,1578922055,62,37.66,-5.53,54.95,1.01
108,Parfenyevo,RU,78,1578922055,84,58.48,43.41,31.53,9.69
109,Witu,KE,67,1578922055,62,-2.39,40.44,88.39,11.83
110,Karratha,AU,53,1578922055,82,-20.74,116.85,85.6,23.35
111,Kerman,IR,86,1578922055,30,30.28,57.08,39.07,2.71
112,Bengkulu,ID,90,1578922055,92,-3.8,102.27,74.97,3.15
113,Leningradskiy,RU,100,1578922055,93,69.38,178.42,-1.39,19.6
114,Ladnun,IN,85,1578922056,68,27.65,74.38,56.95,10.2
115,Berdigestyakh,RU,100,1578922056,98,62.1,126.7,-9.06,4.21
116,Codrington,AU,0,1578922056,85,-38.27,141.97,63.18,12.59
117,Khovd,MN,69,1578922056,89,48.01,91.64,-5.62,2.13
118,Tasiilaq,GL,75,1578922056,53,65.61,-37.64,23.0,5.82
119,Amarante do Maranhao,BR,20,1578922056,89,-5.57,-46.74,77.94,2.8
120,Katsuura,JP,0,1578922056,93,35.13,140.3,45.95,2.48
121,Aswan,EG,27,1578922056,22,24.09,32.91,75.61,12.33
122,Yulara,AU,100,1578922056,20,-25.24,130.99,93.06,7.7
123,Belmopan,BZ,51,1578922056,98,17.25,-88.77,73.0,2.8
124,Lompoc,US,5,1578922056,84,34.64,-120.46,40.68,15.86
125,Cabo San Lucas,MX,100,1578921810,44,22.89,-109.91,58.46,9.95
126,Gijang,KR,28,1578922056,52,35.24,129.21,41.5,9.22
127,Pisco,PE,34,1578922056,89,-13.7,-76.22,69.01,1.01
128,Tura,IN,0,1578922057,70,25.52,90.22,64.98,4.21
129,Safi,MA,66,1578922057,37,32.3,-9.24,63.43,6.06
130,Mount Gambier,AU,0,1578922057,85,-37.83,140.77,59.47,5.75
131,Castro,BR,100,1578921951,78,-24.79,-50.01,69.08,6.46
132,Esperance,AU,54,1578922057,85,-33.87,121.9,64.85,17.78
133,Leshukonskoye,RU,97,1578922057,93,64.9,45.76,20.35,6.76
134,Kirakira,SB,92,1578922057,87,-10.45,161.92,78.53,8.39
135,Bonthe,SL,4,1578922057,36,7.53,-12.51,90.19,2.55
136,Adela,PH,100,1578922057,78,12.44,120.97,74.59,2.04
137,Male,MV,90,1578921827,75,4.17,73.51,81.27,13.4
138,Saldanha,ZA,30,1578922057,78,-33.01,17.94,70.99,19.71
139,Hong Kong,HK,27,1578921957,72,22.29,114.16,64.89,8.01
140,Lorengau,PG,100,1578922057,75,-2.02,147.27,84.18,17.43
141,Sechura,PE,34,1578922057,83,-5.56,-80.82,70.05,10.78
142,Palmer,US,90,1578921975,68,42.16,-72.33,31.71,2.3
143,Ribeira Grande,PT,92,1578922058,88,38.52,-28.7,59.32,20.42
144,Lebu,CL,100,1578922058,79,-37.62,-73.65,60.3,7.96
145,Avera,US,96,1578922058,96,33.19,-82.53,64.65,4.09
146,Bambous Virieux,MU,40,1578922058,74,-20.34,57.76,83.21,11.41
147,Vestmannaeyjar,IS,75,1578922058,55,63.44,-20.27,33.8,6.93
148,Quatre Cocos,MU,40,1578922058,74,-20.21,57.76,83.3,11.41
149,Faanui,PF,100,1578922058,76,-16.48,-151.75,81.03,18.03
150,Ahipara,NZ,29,1578922058,98,-35.17,173.17,62.01,8.5
151,Xam Nua,LA,84,1578922058,95,20.42,104.04,59.4,3.06
152,Atar,MR,94,1578922059,16,20.52,-13.05,70.48,20.6
153,Chui,UY,27,1578922059,51,-33.7,-53.46,71.64,4.9
154,Sakakah,SA,0,1578922059,41,29.97,40.21,58.95,14.5
155,Campbell River,CA,14,1578922059,84,50.02,-125.24,21.99,1.99
156,Hambantota,LK,98,1578922059,72,6.12,81.12,83.91,8.01
157,Port Macquarie,AU,39,1578921778,80,-31.43,152.92,67.26,7.31
158,Osorno,CL,3,1578922059,83,-40.57,-73.15,58.15,2.1
159,Boa Vista,BR,0,1578922059,61,2.82,-60.67,78.53,15.61
160,Upala,CR,90,1578922059,1,10.9,-85.01,73.99,8.84
161,George Town,MY,90,1578921954,74,5.41,100.34,85.23,3.0
162,Kokopo,PG,86,1578922059,77,-4.35,152.26,83.28,15.57
163,Cidreira,BR,87,1578922059,67,-30.18,-50.21,75.61,7.78
164,Roald,NO,100,1578922060,62,62.58,6.13,42.1,11.99
165,Lovington,US,83,1578922060,45,32.94,-103.35,35.33,12.01
166,Salalah,OM,66,1578921838,18,17.02,54.09,72.66,16.93
167,Hualmay,PE,37,1578922060,88,-11.1,-77.61,66.72,2.98
168,Port Alfred,ZA,53,1578922060,85,-33.59,26.89,78.01,4.0
169,Chitral,PK,100,1578922060,97,35.85,71.79,19.26,1.72
170,Dakar,SN,0,1578921846,48,14.69,-17.44,72.63,9.64
171,Ushtobe,KZ,100,1578922060,98,45.25,77.98,29.77,3.18
172,Saint-Pierre,RE,100,1578922060,73,-21.34,55.48,77.63,14.74
173,Pasighat,IN,0,1578922060,69,28.07,95.33,61.77,1.99
174,Zapolyarnyy,RU,45,1578922060,89,69.42,30.81,11.05,5.86
175,Paamiut,GL,25,1578922060,75,61.99,-49.67,13.15,19.62
176,Karavukovo,RS,0,1578922060,85,45.49,19.19,29.48,1.97
177,Comodoro Rivadavia,AR,10,1578922061,64,-45.87,-67.5,63.5,6.08
178,Bandarbeyla,SO,79,1578922061,77,9.49,50.81,76.69,23.11
179,Yangi Marg`ilon,UZ,100,1578922061,67,40.43,71.72,38.46,9.28
180,Bonfim,BR,2,1578922061,64,3.08,-59.95,77.81,11.39
181,Luderitz,NA,0,1578922061,89,-26.65,15.16,64.47,23.89
182,Swellendam,ZA,1,1578922061,29,-34.02,20.44,91.09,10.65
183,Alekseyevka,RU,100,1578922061,92,50.63,38.69,31.8,14.79
184,Araouane,ML,34,1578922061,22,18.9,-3.53,64.94,20.33
185,Khash,IR,0,1578922061,32,28.22,61.22,44.64,3.27
186,Teguise,ES,0,1578922061,51,29.06,-13.56,63.36,11.59
187,Djambala,CG,18,1578922061,50,-2.54,14.75,84.24,2.71
188,Mount Isa,AU,30,1578922061,30,-20.73,139.5,91.29,11.61
189,Algete,ES,100,1578922061,69,40.6,-3.5,44.06,3.0
190,Puerto Colombia,CO,0,1578922062,68,10.99,-74.95,81.0,5.01
191,Isiro,CD,35,1578922062,17,2.77,27.62,96.35,1.77
192,Khipro,PK,0,1578922062,32,25.83,69.38,68.34,9.15
193,Akureyri,IS,87,1578922062,99,65.68,-18.09,13.89,5.41
194,Port Hedland,AU,58,1578922062,65,-20.32,118.57,87.39,18.77
195,Enshi,CN,99,1578922062,89,30.3,109.48,38.64,2.62
196,Wukari,NG,28,1578922062,11,7.85,9.78,103.44,4.41
197,Aklavik,CA,0,1578922062,83,68.22,-135.01,-15.0,19.1
198,Iqaluit,CA,100,1578922062,69,63.75,-68.51,-7.01,4.0
199,Sao Domingos,BR,41,1578922062,66,-13.4,-46.32,82.31,1.21
200,Norman Wells,CA,0,1578922062,77,65.28,-126.83,-14.69,6.98
201,Nehe,CN,0,1578922062,92,48.48,124.83,-4.09,2.17
202,Port-Gentil,GA,76,1578922062,72,-0.72,8.78,83.19,2.95
203,Biltine,TD,4,1578921964,5,14.53,20.92,92.08,14.5
204,Anadyr,RU,44,1578922063,71,64.75,177.48,6.01,5.99
205,Sioux Lookout,CA,35,1578921819,98,50.1,-91.92,-3.42,5.03
206,Santa Rosa,PH,100,1578922063,82,14.31,121.11,78.53,5.99
207,Lucapa,AO,40,1578922063,71,-8.42,20.74,80.1,4.7
208,Gold Coast,AU,100,1578922003,77,-28.0,153.43,72.46,3.0
209,Porbandar,IN,0,1578922063,61,21.64,69.61,70.93,18.54
210,Rock Sound,BS,30,1578922063,80,24.9,-76.2,75.99,19.66
211,Kamnik,SI,84,1578922063,87,46.23,14.61,40.95,0.96
212,Atuona,PF,1,1578922063,80,-9.8,-139.03,79.57,12.64
213,Nurota,UZ,45,1578922063,61,40.56,65.69,31.3,6.33
214,Sabang,ID,18,1578922063,77,5.89,95.32,82.17,10.33
215,Ondangwa,NA,66,1578922063,46,-17.92,15.95,84.15,2.57
216,Wattegama,LK,35,1578922063,73,6.8,81.48,75.63,7.9
217,Baghdad,IQ,89,1578922063,44,33.34,44.4,61.7,10.51
218,Vulcanesti,MD,5,1578922063,57,45.68,28.4,43.59,6.96
219,Tiznit,MA,0,1578922064,26,29.58,-9.5,58.41,0.87
220,Batagay-Alyta,RU,83,1578922064,84,67.8,130.41,-19.88,4.41
221,Siocon,PH,100,1578921786,79,7.71,122.14,80.4,15.03
222,Cairns,AU,67,1578922064,80,-16.92,145.77,78.33,13.56
223,Ponta do Sol,PT,84,1578922064,66,32.67,-17.1,60.82,3.0
224,Coyhaique,CL,40,1578922064,86,-45.58,-72.07,52.74,4.16
225,Hirara,JP,57,1578922064,75,24.8,125.28,67.55,21.77
226,Katima Mulilo,NA,100,1578922064,50,-17.5,24.27,85.87,6.6
227,Caravelas,BR,7,1578922064,87,-17.71,-39.25,77.79,12.53
228,Sao Filipe,CV,70,1578922064,65,14.9,-24.5,71.87,19.3
229,Lagan,RU,78,1578922064,71,45.39,47.37,35.04,15.77
230,Almaznyy,RU,99,1578922064,70,48.04,40.05,33.8,16.44
231,Itarema,BR,6,1578922064,74,-2.92,-39.92,82.78,7.07
232,Sitka,US,64,1578922065,64,57.05,-135.33,18.45,5.59
233,North Bend,US,100,1578922065,97,43.41,-124.22,41.61,5.91
234,Walvis Bay,NA,22,1578922065,81,-22.96,14.51,71.01,5.99
235,Khuzhir,RU,100,1578922065,90,53.19,107.34,12.45,6.78
236,Upernavik,GL,99,1578922065,96,72.79,-56.15,-10.86,10.8
237,Kununurra,AU,51,1578922065,51,-15.77,128.73,87.98,8.75
238,Borovichi,RU,76,1578922065,88,58.39,33.92,33.69,8.93
239,The Valley,AI,2,1578921816,76,18.22,-63.06,80.01,11.99
240,Muros,ES,100,1578922065,74,42.78,-9.06,52.39,18.99
241,Sept-Iles,CA,2,1578921827,77,50.2,-66.38,-4.0,9.95
242,Gobabis,NA,21,1578922002,27,-22.45,18.97,87.08,14.58
243,Asau,RO,0,1578922066,53,46.43,26.4,46.0,4.0
244,Viedma,AR,97,1578921924,26,-40.81,-63.0,80.01,14.65
245,Aleksandrov Gay,RU,100,1578922066,84,50.15,48.57,27.52,14.47
246,Udachny,RU,21,1578922066,93,66.42,112.4,-12.51,4.56
247,Arraial do Cabo,BR,85,1578922066,90,-22.97,-42.03,77.83,8.55
248,Honningsvag,NO,100,1578922066,97,70.98,25.97,33.22,2.75
249,Varzea Grande,BR,94,1578922066,79,-15.65,-56.13,80.47,8.32
250,Mizdah,LY,0,1578922066,48,31.45,12.98,51.39,4.81
251,Varadero,CU,2,1578922046,84,23.15,-81.25,74.61,12.88
252,Riberalta,BO,94,1578922066,98,-10.98,-66.1,73.47,2.95
253,Matamoros,MX,100,1578922066,49,25.53,-103.25,51.01,1.36
254,Leh,IN,100,1578922066,94,34.17,77.58,16.84,6.33
255,Hokitika,NZ,0,1578922066,76,-42.72,170.97,56.93,6.15
256,Warrnambool,AU,0,1578922066,93,-38.38,142.48,60.01,9.4
257,Xining,CN,93,1578922066,68,36.62,101.77,15.87,4.65
258,Lata,PT,100,1578922067,78,40.16,-8.33,50.63,1.01
259,Husavik,IS,67,1578922067,92,66.04,-17.34,24.93,2.3
260,Broken Hill,AU,0,1578922067,18,-31.95,141.43,80.94,9.62
261,Kungurtug,RU,22,1578922067,89,50.6,97.52,-6.32,3.13
262,Khatanga,RU,21,1578922067,85,71.97,102.5,-10.01,5.41
263,Wasilla,US,100,1578922067,80,61.58,-149.44,11.91,2.91
264,Aracaju,BR,20,1578921773,72,-10.91,-37.07,81.61,9.8
265,Naze,JP,90,1578922067,63,28.37,129.48,59.45,9.51
266,Hithadhoo,MV,100,1578922067,76,-0.6,73.08,81.57,11.88
267,Moron,AR,0,1578921832,33,-34.65,-58.62,78.35,7.0
268,Antofagasta,CL,100,1578921836,80,-23.65,-70.4,66.16,6.85
269,Tineo,ES,66,1578922067,36,43.34,-6.41,57.69,5.23
270,Makakilo City,US,100,1578922066,73,21.35,-158.09,75.52,11.99
271,Akersberga,SE,37,1578922067,75,59.48,18.3,37.76,8.01
272,Arman,RU,98,1578922068,90,59.7,150.17,-0.56,7.92
273,Barrow,US,90,1578922068,70,71.29,-156.79,-0.4,13.87
274,Praia da Vitoria,PT,86,1578922068,80,38.73,-27.07,63.39,28.36
275,Shaunavon,CA,100,1578922068,97,49.65,-108.42,-14.98,8.41
276,Klaksvik,FO,100,1578922068,81,62.23,-6.59,45.46,31.94
277,Namatanai,PG,100,1578922068,76,-3.67,152.43,83.57,9.46
278,Shieli,KZ,98,1578922068,80,44.17,66.75,23.63,0.51
279,Sayan,PE,1,1578922068,65,-11.14,-77.19,55.54,0.38
280,Codo,BR,74,1578922068,75,-4.46,-43.89,82.17,2.68
281,Provideniya,RU,100,1578922068,96,64.38,-173.3,15.1,8.5
282,Bilma,NE,50,1578922068,10,18.69,12.92,87.35,17.72
283,Myitkyina,MM,0,1578922068,61,25.38,97.4,61.43,0.89
284,Chapais,CA,85,1578922068,94,49.78,-74.85,-4.31,2.8
285,La Huaca,PE,53,1578922068,67,-4.91,-80.96,73.87,8.66
286,Waitati,NZ,4,1578921998,74,-45.75,170.57,52.0,1.99
287,Sungaipenuh,ID,100,1578922069,98,-2.08,101.38,64.69,1.99
288,Sao Joao da Barra,BR,61,1578922069,88,-21.64,-41.05,78.87,0.74
289,Primo Tapia,MX,4,1578922069,84,32.22,-116.92,45.9,1.01
290,Pevek,RU,100,1578922069,96,69.7,170.31,-5.73,6.33
291,Opuwo,NA,100,1578922069,46,-18.06,13.84,77.61,7.67
292,Farafangana,MG,17,1578922069,72,-22.82,47.83,81.93,13.47
293,Deputatsky,RU,0,1578922069,80,69.3,139.9,-25.17,3.78
294,Berlevag,NO,95,1578922069,91,70.86,29.09,31.62,20.15
295,Flin Flon,CA,100,1578922069,97,54.77,-101.86,-9.42,5.32
296,Chake Chake,TZ,3,1578922069,74,-5.25,39.77,84.99,12.62
297,Umm Lajj,SA,0,1578922069,11,25.02,37.27,74.66,13.06
298,Narsaq,GL,92,1578922070,45,60.92,-46.05,0.73,5.5
299,Nome,US,100,1578922070,92,64.5,-165.41,28.0,21.0
300,Caacupe,PY,100,1578922070,89,-25.38,-57.15,76.59,3.51
301,Valdivia,CL,0,1578922070,73,-39.81,-73.25,59.65,2.28
302,Faya,SA,0,1578922070,47,18.39,42.45,59.94,12.66
303,Tambura,SS,0,1578921907,9,5.6,27.47,96.15,4.05
304,Nemuro,JP,100,1578922070,66,43.32,145.57,27.75,9.89
305,Obihiro,JP,0,1578922070,80,42.92,143.2,15.87,6.87
306,Helong,CN,48,1578922070,91,42.54,129.0,-2.04,4.43
307,Ekhabi,RU,44,1578922070,98,53.51,142.97,-5.96,12.57
308,Labuhan,ID,45,1578922071,87,-6.88,112.21,77.65,5.91
309,Zhuanghe,CN,0,1578922071,39,39.7,122.99,21.99,1.99
310,Bubaque,GW,0,1578922071,49,11.28,-15.83,77.9,14.67
311,Ixtapa,MX,100,1578922071,92,20.7,-105.2,66.0,3.38
312,'Ahuimanu,US,100,1578922071,83,21.44,-157.84,75.47,4.0
313,Trelew,AR,28,1578922071,34,-43.25,-65.31,81.45,19.53
314,Coquimbo,CL,1,1578922071,88,-29.95,-71.34,61.05,5.86
315,Margate,GB,28,1578922051,80,51.38,1.39,47.77,11.01
316,Aksarka,RU,100,1578922071,94,66.56,67.8,13.33,11.74
317,Nola,IT,0,1578922071,44,40.92,14.53,54.25,1.99
318,Paranhos,BR,89,1578922071,73,-23.89,-55.43,81.5,4.45
319,Ayagoz,KZ,100,1578922071,91,47.97,80.44,17.2,5.91
320,Daru,PG,100,1578922072,94,-9.08,143.21,74.98,5.03
321,Pangoa,PE,25,1578921785,97,-12.12,-73.0,70.09,1.63
322,Poum,NC,99,1578922072,78,-20.23,164.02,80.1,27.07
323,Samarai,PG,100,1578921785,93,-10.62,150.67,74.89,4.9
324,Jackson,US,69,1578922004,94,42.42,-122.83,33.19,2.28
325,Den Helder,NL,23,1578921868,100,52.96,4.76,46.47,11.99
326,Abha,SA,5,1578921868,50,18.22,42.51,69.89,6.58
327,Pundaguitan,PH,65,1578922072,77,6.37,126.17,81.45,10.02
328,Ciudad Lazaro Cardenas,MX,12,1578922072,88,17.96,-102.2,71.89,3.49
329,Ambilobe,MG,87,1578922072,88,-13.2,49.05,79.74,4.0
330,Kaputa,ZM,57,1578922072,64,-8.47,29.66,78.84,3.91
331,Mahanoro,MG,86,1578922072,69,-19.9,48.8,82.92,9.66
332,Merauke,ID,98,1578922072,95,-8.47,140.33,74.64,3.91
333,Mawlaik,MM,9,1578922072,66,23.63,94.42,65.62,1.1
334,Kamen'-Rybolov,RU,50,1578922072,91,44.75,132.04,2.25,1.66
335,Louangphabang,LA,32,1578922073,69,19.89,102.13,68.77,2.44
336,Vinh,VN,95,1578922073,93,18.67,105.67,68.92,3.85
337,Terney,RU,49,1578922073,77,45.05,136.61,6.67,6.85
338,Soyo,AO,20,1578922073,59,-6.13,12.37,89.6,9.17
339,Port Hardy,CA,100,1578922073,76,50.7,-127.42,14.47,5.06
340,Kiryat Gat,IL,93,1578922073,27,31.61,34.76,59.79,12.68
341,Florida,US,89,1578921833,91,28.75,-82.5,68.47,9.37
342,Bandar,ID,3,1578922073,83,2.05,99.75,78.39,3.53
343,Benghazi,LY,78,1578922073,47,32.12,20.07,61.11,18.77
344,Kumul,CN,65,1578922074,45,42.8,93.45,20.16,1.14
345,Kaeo,NZ,27,1578922074,98,-35.1,173.78,60.64,9.46
346,Fuyu,CN,38,1578922074,99,45.18,124.82,-5.57,3.44
347,Arlit,NE,0,1578922074,9,18.74,7.39,78.15,8.81
348,Ola,RU,100,1578922074,79,59.58,151.28,-7.08,7.52
349,Kalat,PK,7,1578922074,78,29.02,66.59,22.26,5.91
350,Murashi,RU,99,1578922074,89,59.4,48.96,31.08,11.86
351,Grand Gaube,MU,40,1578922074,74,-20.01,57.66,83.46,11.41
352,Ossora,RU,80,1578922074,75,59.24,163.07,11.28,3.2
353,Laas,IT,61,1578922074,37,46.62,10.7,41.0,3.0
354,Toucheng,TW,100,1578922074,99,24.86,121.82,61.23,15.05
355,Santa Cruz de la Sierra,BO,90,1578921809,19,-17.8,-63.17,80.01,10.0
356,Bulawayo,ZW,5,1578922075,37,-20.15,28.58,87.21,13.06
357,Saint Anthony,US,90,1578922075,78,45.02,-93.22,14.18,4.7
358,Mpongwe,ZM,89,1578922075,66,-13.51,28.16,78.6,5.3
359,Mossamedes,AO,17,1578922075,78,-15.2,12.15,74.16,7.27
360,Bangkal,PH,56,1578922075,92,6.07,121.07,75.54,4.25
361,Chara,RU,16,1578922075,78,56.91,118.26,-16.33,0.29
362,Waddan,LY,99,1578922075,87,29.16,16.14,48.76,12.08
363,Birao,CF,2,1578922075,10,10.28,22.79,86.31,16.08
364,Kailua,US,83,1578922075,83,21.4,-157.74,75.43,4.0
365,Rimouski,CA,100,1578922075,81,48.45,-68.52,5.0,5.64
366,Porto de Moz,BR,57,1578922075,88,-1.75,-52.24,77.52,2.77
367,Lakes Entrance,AU,0,1578922075,77,-37.88,147.98,60.73,6.71
368,Padang,ID,100,1578922076,97,-0.95,100.35,69.87,0.69
369,Coracao de Maria,BR,45,1578922076,74,-12.23,-38.75,78.35,4.09
370,Hasaki,JP,0,1578922076,99,35.73,140.83,41.38,1.99
371,Henties Bay,NA,13,1578922076,81,-22.12,14.28,71.01,5.99
372,Tezu,IN,0,1578922076,55,27.92,96.17,59.65,4.61
373,Tongliao,CN,0,1578922076,88,43.61,122.27,-2.36,3.38
374,Lavrentiya,RU,100,1578922076,85,65.58,-171.0,21.09,20.33
375,Chunskiy,RU,18,1578922076,89,56.08,99.63,1.26,2.73
376,Nouadhibou,MR,100,1578922076,48,20.93,-17.03,65.55,7.47
377,Alkhan-Kala,RU,28,1578922076,69,43.25,45.53,34.61,2.98
378,Kathu,TH,11,1578922076,75,7.92,98.33,82.83,5.21
379,Fortuna,US,90,1578922077,100,40.6,-124.16,41.29,5.82
380,Nantucket,US,100,1578922077,87,41.28,-70.1,39.07,5.99
381,Digby,CA,100,1578922077,80,44.62,-65.77,28.0,4.0
382,Labrea,BR,100,1578922077,95,-7.26,-64.8,74.3,1.7
383,Keuruu,FI,0,1578922077,99,62.27,24.7,29.66,8.03
384,Lac du Bonnet,CA,100,1578922077,88,50.25,-96.06,16.0,3.0
385,Qiongshan,CN,68,1578922077,84,20.01,110.35,68.4,10.54
386,Surab,PK,0,1578922077,69,28.49,66.26,24.51,13.0
387,Buraidah,SA,0,1578921792,13,26.33,43.98,65.8,7.74
388,Farso,DK,62,1578922077,94,56.77,9.34,42.51,5.01
389,Westport,US,100,1578921939,83,41.14,-73.36,36.39,10.63
390,Tarauaca,BR,99,1578922077,98,-8.16,-70.77,70.57,2.66
391,Beidao,CN,46,1578922077,63,34.57,105.89,28.15,4.79
392,Honiara,SB,99,1578921831,86,-9.43,159.95,75.06,7.02
393,Aviles,ES,68,1578922017,36,43.55,-5.92,60.71,3.51
394,Srednekolymsk,RU,100,1578922078,97,67.45,153.68,-14.42,9.42
395,Moratuwa,LK,39,1578922078,56,6.77,79.88,83.07,8.72
396,Ketchikan,US,32,1578922078,70,55.34,-131.65,2.23,4.09
397,Trairi,BR,31,1578922078,64,-3.28,-39.27,84.18,5.59
398,Road Town,VG,0,1578921834,77,18.42,-64.62,78.22,25.01
399,Port Lincoln,AU,0,1578922078,78,-34.73,135.87,66.58,12.62
400,Raja,SS,0,1578921907,8,8.46,25.68,90.91,4.23
401,Prado,BR,7,1578921808,87,-17.34,-39.22,77.79,12.53
402,Tessalit,ML,0,1578922078,20,20.2,1.01,65.43,20.8
403,Waingapu,ID,100,1578922078,77,-9.66,120.26,84.47,14.74
404,Tiksi,RU,100,1578922079,86,71.69,128.87,-9.04,12.19
405,Gwadar,PK,0,1578922079,36,25.12,62.33,64.62,8.81
406,Norway,US,100,1578922079,89,45.79,-87.9,15.22,1.01
407,Camana,PE,87,1578922079,84,-16.62,-72.71,63.12,3.38
408,Amapa,BR,98,1578922079,97,1.0,-52.0,73.24,2.08
409,Zeya,RU,0,1578922079,96,53.75,127.27,-10.55,1.21
410,Umuarama,BR,96,1578921795,90,-23.77,-53.33,76.5,13.76
411,Monrovia,LR,6,1578922079,61,6.3,-10.8,86.25,8.34
412,Gadung,PH,93,1578922079,73,6.8,124.02,80.67,3.06
413,Guerrero Negro,MX,30,1578922079,87,27.98,-114.06,54.9,5.57
414,Port Augusta,AU,0,1578922079,31,-32.5,137.77,75.99,13.06
415,Lingyuan,CN,18,1578922079,54,41.24,119.4,12.43,2.19
416,Oranjemund,NA,30,1578922080,61,-28.55,16.43,74.71,20.92
417,Irbeyskoye,RU,100,1578922080,91,55.64,95.45,14.99,1.79
418,Zhezkazgan,KZ,17,1578922080,91,47.8,67.71,8.47,7.0
419,Chegdomyn,RU,31,1578922080,96,51.12,133.02,-16.74,1.79
420,Tacna,PE,97,1578922080,62,-18.01,-70.25,63.93,2.93
421,Mabaruma,GY,27,1578922080,88,8.2,-59.78,72.91,0.65
422,Jimenez,MX,100,1578922080,32,28.33,-105.4,51.44,8.05
423,Hamilton,US,93,1578922011,88,39.18,-84.53,40.95,3.0
424,Gouyave,GD,0,1578922080,74,12.16,-61.73,79.03,24.56
425,Canutama,BR,98,1578922080,97,-6.53,-64.38,72.12,1.1
426,Strezhevoy,RU,98,1578922080,92,60.73,77.59,7.3,11.72
427,Challapata,BO,92,1578922081,72,-18.9,-66.77,52.97,5.3
428,Along,IN,0,1578922081,76,28.17,94.77,54.01,1.99
429,Okhotsk,RU,0,1578922081,72,59.38,143.3,-18.49,7.74
430,Whitehorse,CA,36,1578921933,58,60.72,-135.05,-37.46,1.57
431,Grand-Lahou,CI,23,1578922081,78,5.14,-5.02,82.47,7.43
432,Banjar,ID,99,1578922081,74,-8.19,114.97,83.77,6.55
433,Morag,PL,95,1578922081,88,53.92,19.93,42.51,3.0
434,Constantine,DZ,94,1578922081,75,36.37,6.61,50.4,6.22
435,Shaoyang,CN,95,1578922081,76,27.23,111.45,43.77,2.8
436,Tempio Pausania,IT,0,1578922081,63,40.9,9.1,51.49,1.01
437,Ancud,CL,47,1578922081,83,-41.87,-73.82,57.67,1.86
438,Barentu,ER,0,1578922082,14,15.11,37.59,86.49,9.48
439,Ust'-Ishim,RU,100,1578922082,89,57.69,71.17,13.91,13.35
440,Parkes,AU,85,1578922082,34,-33.13,148.18,82.99,5.99
441,Kota Belud,MY,100,1578922082,90,6.35,116.43,79.5,6.26
442,Chongwe,ZM,100,1578922082,84,-15.33,28.68,74.55,2.53
443,Hearst,CA,100,1578922082,91,49.68,-83.67,-2.94,4.29
444,Olafsvik,IS,32,1578922082,69,64.89,-23.71,31.12,23.91
445,Lufilufi,WS,99,1578922082,94,-13.87,-171.6,78.01,3.0
446,Mokobeng,BW,48,1578922082,37,-23.0,27.67,88.21,4.59
447,Rafai,CF,11,1578922082,9,4.95,23.92,97.11,3.56
448,Sinnamary,GF,86,1578922082,81,5.38,-52.95,79.38,15.95
449,Verkhnyaya Inta,RU,99,1578922082,95,65.98,60.31,21.38,11.05
450,Erbil,IQ,100,1578921878,91,36.19,44.01,40.68,7.0
451,Saint Pete Beach,US,100,1578922083,1,27.73,-82.74,69.53,9.15
452,Petropavlovsk-Kamchatsky,RU,100,1578922083,98,53.05,158.65,31.89,23.44
453,Touros,BR,2,1578922072,79,-5.2,-35.46,81.73,18.99
454,Scarborough,GB,18,1578921943,87,54.28,-0.4,43.75,4.0
455,Bosaso,SO,0,1578922083,75,11.28,49.18,75.85,22.53
456,Wakkanai,JP,100,1578922083,69,45.41,141.67,25.03,8.05
457,Ucluelet,CA,100,1578921880,74,48.93,-125.55,33.01,7.45
458,Szentgotthard,HU,99,1578922083,60,46.95,16.27,42.19,4.0
459,Jaca,ES,100,1578922083,46,42.57,-0.55,44.38,2.3
460,Seddon,AU,0,1578922083,77,-37.81,144.89,69.75,3.0
461,Korla,CN,100,1578922084,91,41.76,86.15,33.01,1.99
462,Bauru,BR,100,1578922084,10,-22.31,-49.06,75.99,5.01
463,San Cristobal,VE,26,1578922084,92,7.77,-72.22,52.05,6.04
464,Kankanhalli,IN,82,1578922084,48,12.55,77.42,80.69,5.73
465,Sambava,MG,96,1578922084,56,-14.27,50.17,84.18,5.61
466,Maragogi,BR,84,1578922084,71,-9.01,-35.22,80.91,7.99
467,Taunggyi,MM,46,1578922084,65,20.78,97.03,60.4,5.37
468,Jaszkarajeno,HU,17,1578922084,96,47.05,20.07,28.51,3.56
469,Cascais,PT,100,1578922084,57,38.7,-9.42,53.22,4.05
470,Miquelon,PM,68,1578921845,73,47.1,-56.38,23.0,14.0
471,Lethem,GY,0,1578922084,62,3.38,-59.8,78.28,12.1
472,Muroto,JP,0,1578922084,71,33.28,134.15,38.28,5.46
473,Vilhena,BR,100,1578921963,95,-12.74,-60.15,71.17,2.71
474,Grootfontein,NA,63,1578922084,48,-19.57,18.12,80.74,12.44
475,Republic of El Salvador,SV,0,1578921873,79,13.83,-88.92,72.0,4.0
476,Canon City,US,75,1578922085,35,38.44,-105.24,22.93,12.75
477,Grindavik,IS,98,1578922085,72,63.84,-22.43,32.79,21.56
478,Dawei,MM,25,1578922085,73,14.08,98.2,79.52,13.47
479,Sun City West,US,1,1578922085,56,33.66,-112.34,39.31,5.82
480,Wilmington,US,100,1578922085,99,34.23,-77.94,66.22,6.38
481,Pasuruan,ID,90,1578922085,77,-7.65,112.91,85.15,13.31
482,Fort Nelson,CA,100,1578922085,99,58.81,-122.7,-18.29,0.76
483,Jalu,LY,85,1578922085,37,29.03,21.55,64.47,12.39
484,Bhimunipatnam,IN,0,1578922086,68,17.88,83.43,71.17,8.61
485,Mansa,IN,100,1578922086,89,29.98,75.38,53.91,7.09
486,Bay-Khaak,RU,57,1578922086,80,51.17,94.5,-7.35,8.97
487,Russell,US,98,1578921880,98,32.35,-85.2,64.13,2.55
488,Buin,CL,0,1578922086,44,-33.73,-70.75,68.22,3.76
489,Los Andes,CL,0,1578922063,34,-32.83,-70.6,65.41,3.24
490,Nanakuli,US,100,1578922086,73,21.39,-158.15,75.52,11.99
491,Buala,SB,100,1578922086,82,-8.14,159.59,81.09,10.71
492,Suez,EG,64,1578922086,39,29.97,32.53,63.05,6.89
493,Inta,RU,100,1578922086,94,66.03,60.17,21.4,13.51
494,Palmdale,US,90,1578921935,81,34.58,-118.12,40.6,5.5
495,Chalus,IR,100,1578922086,86,36.66,51.42,36.82,3.78
496,Porangatu,BR,67,1578922087,86,-13.44,-49.15,77.85,3.44
497,Joshimath,IN,100,1578922087,97,30.57,79.57,33.4,1.79
498,Kilindoni,TZ,34,1578922087,74,-7.91,39.67,84.61,11.88
499,Alekseyevsk,RU,13,1578922087,94,57.84,108.35,-10.19,3.09
500,Smolenka,RU,0,1578922087,91,52.14,113.5,-9.6,0.51
501,Santa Isabel do Rio Negro,BR,65,1578922087,83,-0.41,-65.02,76.66,1.12
502,Kwakoa,TZ,12,1578922087,38,-3.77,37.72,89.01,10.27
503,Mahon,ES,1,1578922087,59,39.89,4.27,55.13,5.7
504,Tlaltenango,MX,0,1578922087,79,19.17,-98.33,48.24,2.28
505,Alice,US,99,1578922087,96,27.75,-98.07,61.39,8.99
506,Bintulu,MY,98,1578921797,88,3.17,113.03,80.01,1.99
507,Bazarnyye Mataki,RU,100,1578922088,95,54.88,49.93,26.01,13.42
508,Presidencia Roque Saenz Pena,AR,100,1578922088,75,-26.79,-60.44,79.97,7.18
509,Divnomorskoye,RU,21,1578922088,69,44.5,38.14,40.5,5.86
510,Innisfail,AU,79,1578922088,92,-17.53,146.03,75.38,4.21
511,Kangaatsiaq,GL,100,1578922088,96,68.31,-53.46,6.91,13.11
512,Kavaratti,IN,100,1578922088,61,10.57,72.64,82.09,9.35
513,Conakry,GN,0,1578922088,33,9.54,-13.68,87.49,7.96
514,Waipawa,NZ,38,1578922088,72,-41.41,175.52,54.5,1.01
515,Khed,IN,8,1578922088,56,17.72,73.38,81.19,8.93
516,Mandera,KE,73,1578922089,12,3.94,41.87,86.0,1.99
517,Cruz Alta,BR,75,1578922089,74,-28.64,-53.61,76.95,12.19
518,Vila Franca do Campo,PT,50,1578922089,77,37.72,-25.43,62.01,5.99
519,Sur,OM,28,1578922089,50,22.57,59.53,67.35,16.17
520,Mehamn,NO,100,1578922089,96,71.04,27.85,29.1,14.14
521,Shunyi,CN,0,1578922089,37,40.12,116.65,27.97,9.98
522,Tautira,PF,100,1578922089,83,-17.73,-149.15,77.0,3.0
523,Mali,GN,0,1578922089,12,12.08,-12.3,96.8,2.68
524,Flinders,AU,31,1578922089,22,-34.58,150.86,66.31,5.01
525,Khilok,RU,0,1578922089,94,51.37,110.47,-7.38,1.48
526,Champerico,GT,0,1578922089,66,14.3,-91.92,71.98,2.86
527,Tabou,CI,74,1578922089,49,4.42,-7.35,94.93,1.79
528,Matagami,CA,100,1578922090,97,49.75,-77.63,-3.08,2.95
529,Yarovoy,RU,100,1578922090,94,52.93,78.58,6.93,7.81
530,Vostok,RU,100,1578922090,98,46.49,135.88,-4.09,3.29
531,Awasa,ET,38,1578922090,49,7.05,38.47,73.74,7.52
532,Dingle,PH,100,1578922090,92,11.0,122.67,73.62,7.47
533,Ust'-Omchug,RU,10,1578922090,99,61.15,149.63,-32.46,2.17
534,Shitanjing,CN,0,1578922090,58,39.23,106.34,16.88,4.61
535,Syracuse,IT,5,1578922090,78,37.09,15.28,56.46,4.0
536,Hervey Bay,AU,43,1578922090,82,-25.3,152.85,73.99,3.0
537,Ziro,IN,0,1578922090,77,27.63,93.83,49.59,2.93
538,Corinth,GR,32,1578922090,46,37.94,22.96,55.11,3.0
539,Esim,GH,96,1578922090,50,4.87,-2.24,93.43,4.56
540,Hatillo,PR,0,1578922090,72,18.49,-66.83,77.86,5.99
541,Manokwari,ID,100,1578921991,86,-0.87,134.08,74.43,3.6
542,Okha,RU,44,1578922091,98,53.57,142.95,-5.96,12.57
543,Campina Verde,BR,85,1578922091,76,-19.54,-49.49,80.02,2.66
544,Auki,SB,96,1578922091,77,-8.77,160.7,84.88,23.33
545,Monte Patria,CL,0,1578922091,41,-30.69,-70.95,68.68,3.4
546,Vengerovo,RU,95,1578922091,96,55.68,76.75,3.24,10.65
547,Poyarkovo,RU,12,1578922091,97,49.6,128.68,-9.38,2.66
548,Northam,GB,91,1578922091,83,51.03,-4.22,50.16,23.0
549,Raudeberg,NO,100,1578922091,76,61.99,5.14,44.01,45.07
550,Dwarka,IN,0,1578922091,66,22.24,68.97,67.62,13.24
551,Turukhansk,RU,100,1578922091,93,65.82,87.98,3.78,13.18
552,College,US,81,1578922091,76,64.86,-147.8,-9.11,2.33
553,Preston,GB,88,1578922091,87,53.77,-2.72,46.26,8.99
554,Phan Thiet,VN,0,1578922091,72,10.93,108.1,71.1,5.79
555,Linjiang,CN,34,1578922091,97,41.81,126.91,-3.24,1.52
556,Sibolga,ID,83,1578922092,96,1.74,98.78,73.71,0.85
557,Parit Buntar,MY,89,1578922092,74,5.13,100.49,85.51,3.0
558,Mandalgovi,MN,0,1578922092,86,45.76,106.27,-0.42,8.7
559,Rocha,UY,0,1578922092,46,-34.48,-54.33,70.27,7.34
560,Ariano Irpino-Martiri,IT,40,1578922092,68,41.15,15.08,53.37,1.01
561,Lerwick,GB,85,1578922092,74,60.15,-1.15,45.37,35.61
562,Mnogovershinnyy,RU,46,1578922092,85,53.94,139.92,-8.1,4.7
563,Fare,PF,100,1578922092,77,-16.7,-151.02,81.19,18.43
564,Te Anau,NZ,0,1578922092,81,-45.42,167.72,42.82,1.23
565,Banda Aceh,ID,60,1578922092,77,5.56,95.32,77.43,3.98
566,West Wendover,US,14,1578921865,59,40.74,-114.07,32.74,22.68
567,Kulhudhuffushi,MV,100,1578922092,62,6.62,73.07,82.22,6.82
568,Sakaiminato,JP,93,1578922093,71,35.55,133.23,42.53,10.85
